     2.11           OBSERVATION DATA    M                   RINEX VERSION / TYPE
sbf2rin-15.6.1                          27-JAN-24 14:21     PGM / RUN BY / DATE 
-S                                                          COMMENT             
SEPT                                                        MARKER NAME         
Unknown                                                     MARKER NUMBER       
Unknown             Unknown                                 OBSERVER / AGENCY   
3606818             SEPT MOSAIC-X5      4.8.0               REC # / TYPE / VERS 
Unknown             Unknown                                 ANT # / TYPE        
  -881174.2490  5986607.0266  2010762.8151                  APPROX POSITION XYZ 
        0.0000        0.0000        0.0000                  ANTENNA: DELTA H/E/N
     1     1                                                WAVELENGTH FACT L1/2
     9    C1    L1    L2    P2    C2    C5    L5    C7    L7# / TYPES OF OBSERV 
For GPS, L2 corresponds to the L2P carrier phase.           COMMENT             
For GLONASS, L2 corresponds to the L2CA carrier phase.      COMMENT             
     1.000                                                  INTERVAL            
  2024     1    21    14    45    0.0000000     GPS         TIME OF FIRST OBS   
  2024     1    21    14    59   59.0000000     GPS         TIME OF LAST OBS    
    25                                                      # OF SATELLITES     
    18                                                      LEAP SECONDS        
                                                            END OF HEADER       
 24  1 21 14 45  0.0000000  0 24G20G13E05G11G12E15G05G17R11G22G06R10
                                E03E27E08E30R20G19R06R05E02R09R21E34
  20155448.374 7 105917741.40107  82533398.93307  20155450.402 7

  24369352.034 6 128061816.29006  99788447.72603  24369349.940 3

  24788004.152 6 130261807.10906
  24788016.570 7  97273456.38707  24788013.931 7  99811007.97707
  21718740.380 7 114132903.76807  88934827.64505  21718745.467 5  21718745.589 7

  21509603.736 8 113033780.20108  88078303.64309  21509609.133 9  21509609.691 7

  25154599.970 6 132188388.87106
  25154612.454 7  98712266.01607  25154609.621 7 101287334.31907
  21526327.331 7 113121624.63307  88146760.32308  21526331.833 8  21526332.776 7

  23405979.021 6 122999359.48906  95843734.66307  23405985.502 7  23405985.668 7

  22019046.528 7 117663105.11107  91515803.56207                  22019059.658 7

  23727695.203 6 124690036.41106  97161154.42704  23727693.945 4

  22645168.891 6 119001326.98806  92728419.37607  22645175.804 7  22645177.200 7

  21286848.391 7 113470878.14907

  25813870.022 7 135652823.60007
  25813877.826 7 101299406.31907  25813875.114 7 103941931.15607
  26191351.240 5 137636504.02705
  26191364.478 5 102780553.04205  26191361.044 5 105461766.46305
  28061356.069 5 147463462.15605
  28061362.009 5 110118871.29005  28061361.482 6 112991524.02906
  23962757.521 8 125925201.20508
  23962766.215 8  94035137.37408  23962763.794 8  96488215.43008
  21776964.730 5 116451350.04705  90573392.00206                  21776976.264 6

  21675728.379 7 113906854.69807  88758660.65606  21675732.400 6

  20646584.455 7 110174159.02807

  20780096.959 8 111081614.65908  86396854.47108                  20780107.994 8

  25502438.046 6 134016412.05806
  25502441.541 7 100077345.94107  25502439.378 8 102688029.82408
  22973242.195 6 122675937.64806  95414787.70908                  22973250.373 8

                                                                  22624374.475 5

  25179603.409 7 132319880.05207
  25179613.449 7  98810446.93707  25179610.901 7 101388082.62607
 24  1 21 14 45  1.0000000  0 24G20G13E05G11G12E15G05G17R11G22G06R10
                                E03E27E08E30R20G19R06R05E02R09R21E34
  20155514.377 7 105918088.07907  82533669.10207  20155516.367 7

  24368879.649 6 128059332.56806  99786512.35603  24368877.298 3

  24787911.599 6 130261320.62006
  24787923.981 7  97273093.09007  24787921.379 7  99810635.21107
  21718888.249 7 114133680.47807  88935432.88105  21718893.281 5  21718893.438 7

  21509394.615 7 113032681.24307  88077447.31609  21509400.004 9  21509400.624 7

  25154605.203 6 132188416.64906
  25154617.717 7  98712286.76107  25154614.881 7 101287355.60907
  21525886.554 7 113119307.93707  88144955.10208  21525890.984 8  21525891.910 7

  23406315.583 6 123001127.91706  95845112.66507  23406322.027 7  23406322.237 7

  22018938.840 7 117662530.81207  91515356.88007                  22018952.031 7

  23728351.537 6 124693484.84706  97163841.51304  23728350.209 4

  22645471.202 6 119002914.81506  92729656.64607  22645478.019 7  22645479.346 7

  21287338.319 7 113473490.39407

  25813487.365 7 135650813.00007
  25813495.191 7 101297904.88607  25813492.516 7 103940390.55607
  26191038.866 5 137634862.49105
  26191052.057 5 102779327.27005  26191048.632 5 105460508.67305
  28060947.089 5 147461313.16405
  28060953.198 5 110117266.53505  28060952.488 7 112989877.41307
  23962910.537 8 125926005.10508
  23962919.167 8  94035737.69208  23962916.768 8  96488831.41208
  21777003.063 5 116451553.64405  90573550.35606                  21777014.136 6

  21675972.899 7 113908139.76307  88759662.00706  21675976.976 6

  20646003.179 7 110171056.94207

  20780308.083 8 111082743.58008  86397732.52408                  20780319.218 8

  25502967.092 7 134019192.31807
  25502970.510 7 100079422.00107  25502968.339 8 102690160.02708
  22973951.685 6 122679726.61606  95417734.69807                  22973959.785 7

                                  94162900.12515                  22624178.246 5

  25179791.863 7 132320870.86207
  25179802.012 7  98811186.83107  25179799.470 7 101388841.82607
 24  1 21 14 45  2.0000000  0 24G20G13E05G11G12E15G05G17R11G22G06R10
                                E03E27E08E30R20G19R06R05E02R09R21E34
  20155580.435 7 105918435.54507  82533939.88007  20155582.476 7

  24368407.158 6 128056848.82206  99784576.97403  24368404.666 3

  24787819.101 6 130260834.67406
  24787831.520 7  97272730.22707  24787828.821 7  99810262.87107
  21719036.065 7 114134457.42907  88936038.30005  21719041.113 5  21719041.320 7

  21509185.653 7 113031583.11407  88076591.63609  21509191.036 9  21509191.641 7

  25154610.494 6 132188444.63606
  25154623.027 7  98712307.66907  25154620.209 7 101287377.06307
  21525445.848 7 113116991.90807  88143150.40408  21525450.266 8  21525451.277 7

  23406652.179 6 123002896.88406  95846491.08207  23406658.656 7  23406659.058 7

  22018831.626 7 117661957.47707  91514910.95707                  22018844.774 7

  23729007.839 6 124696933.58106  97166528.84004  23729006.518 4

  22645773.440 6 119004502.77506  92730894.02007  22645780.265 7  22645781.610 7

  21287828.487 7 113476103.28907

  25813104.812 7 135648802.68007
  25813112.662 7 101296403.67107  25813109.996 7 103938850.17407
  26190726.599 5 137633221.53505
  26190739.679 5 102778101.88205  26190736.364 5 105459251.31305
  28060538.158 5 147459164.14105
  28060544.363 6 110115661.76306  28060543.619 7 112988230.78807
  23963063.649 8 125926809.65708
  23963072.276 8  94036338.48708  23963069.868 8  96489447.87708
  21777040.958 5 116451757.35205  90573708.79206                  21777052.384 6

  21676217.553 7 113909425.42007  88760663.81506  21676221.668 6

  20645421.862 7 110167955.54807

  20780519.457 8 111083873.52908  86398611.37208                  20780530.596 8

  25503496.270 7 134021972.89907
  25503499.603 7 100081498.37407  25503497.411 7 102692290.58607
  22974661.678 6 122683515.67806  95420681.74707                  22974669.347 7

                                                                  22623981.949 5

  25179980.415 7 132321861.79307
  25179990.547 7  98811926.80707  25179988.050 7 101389601.10607
 24  1 21 14 45  3.0000000  0 24G20G13E05G11G12E15G05G17R11G22G06R10
                                E03E27E08E30R20G19R06R05E02R09R21E34
  20155646.625 8 105918783.64708  82534211.12907  20155648.710 7

  24367934.694 6 128054365.01806  99782641.55203  24367932.015 3

  24787726.648 6 130260349.27106
  24787739.152 7  97272367.76307  24787736.449 7  99809890.96007
  21719184.022 7 114135234.60807  88936643.89705  21719188.985 5  21719189.357 7

  21508976.854 7 113030485.80907  88075736.60009  21508982.229 9  21508982.755 7

  25154615.891 6 132188472.83006
  25154628.323 7  98712328.73307  25154625.548 7 101287398.67707
  21525005.255 7 113114676.53807  88141346.21908  21525009.672 8  21525010.702 7

  23406988.752 6 123004666.37206  95847869.90907  23406995.387 7  23406995.906 7

  22018724.694 7 117661385.13107  91514465.78607                  22018737.672 7

  23729664.071 6 124700382.61706  97169216.39804  23729662.863 4

  22646075.801 6 119006090.84406  92732131.47907  22646082.524 7  22646083.813 7

  21288318.675 7 113478716.81707

  25812722.239 7 135646792.60407
  25812730.115 7 101294902.62107  25812727.488 7 103937309.97807
  26190414.422 5 137631581.11805
  26190427.503 5 102776876.87205  26190424.230 5 105457994.36005
  28060129.019 5 147457015.11505
  28060135.443 6 110114056.99206  28060134.673 7 112986584.13807
  23963216.897 8 125927614.83108
  23963225.533 8  94036939.75608  23963223.085 8  96490064.83308
  21777079.626 5 116451961.16005  90573867.29806                  21777090.462 6

  21676462.433 7 113910711.64907  88761666.07106  21676466.462 6

  20644840.873 7 110164854.83107

  20780731.231 8 111085004.50408  86399491.03008                  20780742.328 8

  25504025.443 6 134024753.82706
  25504028.826 6 100083575.14106  25504026.618 6 102694421.42006
  22975371.180 6 122687304.84206  95423628.87507                  22975378.940 7

  22623778.407 4                                                  22623786.302 5

  25180168.911 7 132322852.80907
  25180179.118 7  98812666.85307  25180176.629 7 101390360.47007
 24  1 21 14 45  4.0000000  0 24G20G13E05G11G12E15G05G17R11G22G06R10
                                E03E27E08E30R20G19R06R05E02R09R21E34
  20155712.935 7 105919132.09307  82534482.63707  20155715.001 7

  24367461.946 6 128051880.84906  99780705.84003  24367459.262 3

  24787634.259 6 130259864.10206
  24787646.835 7  97272005.46407  24787644.093 7  99809519.20807
  21719331.833 7 114136011.70907  88937249.43405  21719336.844 5  21719337.235 7

  21508768.195 7 113029388.99507  88074881.94309  21508773.516 9  21508774.011 7

  25154621.255 6 132188500.90606
  25154633.675 7  98712349.71107  25154630.867 7 101287420.19607
  21524564.748 7 113112361.52107  88139542.31008  21524569.155 8  21524570.123 7

  23407325.529 6 123006436.04906  95849248.88207  23407332.153 7  23407332.599 7

  22018617.700 7 117660813.38407  91514021.08307                  22018630.774 7

  23730320.439 6 124703831.62106  97171903.93404  23730319.177 4

  22646377.810 6 119007678.71106  92733368.78007  22646384.743 7  22646386.038 7

  21288809.009 7 113481330.64407

  25812339.592 7 135644782.47307
  25812347.658 7 101293401.54907  25812344.997 7 103935769.74007
  26190102.187 5 137629940.93905
  26190115.479 5 102775652.06905  26190112.040 5 105456737.61105
  28059719.996 5 147454865.73005
  28059726.429 6 110112451.91506  28059725.680 7 112984937.19907
  23963370.173 8 125928420.31708
  23963378.817 8  94037541.24908  23963376.368 8  96490682.01908
  21777118.220 5 116452164.72805  90574025.64006                  21777128.633 6

  21676707.217 7 113911998.12607  88762668.51906  21676711.310 6

  20644259.890 7 110161754.44007

  20780943.119 8 111086136.19508  86400371.22708                  20780954.068 8

  25504554.765 6 134027534.87306
  25504557.817 5 100085651.85005  25504555.924 6 102696552.41806
  22976080.550 7 122691093.77907  95426575.81907                  22976088.328 7

  22623583.163 4                                                  22623591.917 5

  25180357.384 7 132323843.60907
  25180367.706 7  98813406.74707  25180365.165 7 101391119.64907
 24  1 21 14 45  5.0000000  0 24G20G13E05G11G12E15G05G17R11G22G06R10
                                E03E27E08E30R20G19R06R05E02R09R21E34
  20155779.204 7 105919480.86407  82534754.35507  20155781.351 7

  24366989.065 6 128049396.29306  99778769.82403  24366986.428 3

  24787541.955 6 130259379.10606
  24787554.543 7  97271643.31007  24787551.781 7  99809147.60007
  21719479.613 7 114136788.68207  88937854.87205  21719484.689 5  21719485.154 7

  21508559.581 7 113028292.65207  88074027.65409  21508564.897 9  21508565.483 7

  25154626.589 6 132188528.83806
  25154638.985 7  98712370.56807  25154636.169 7 101287441.60007
  21524124.219 7 113110046.80307  88137738.63208  21524128.691 8  21524129.633 7

  23407662.205 6 123008205.87406  95850627.97407  23407668.947 7  23407669.191 7

  22018510.847 7 117660242.23807  91513576.87207                  22018524.072 7

  23730976.803 6 124707280.55806  97174591.41804  23730975.495 4

  22646679.858 6 119009266.33406  92734605.89207  22646686.918 7  22646688.161 7

  21289299.304 7 113483944.77807

  25811956.990 7 135642772.27107
  25811965.157 7 101291900.41707  25811962.458 7 103934229.45107
  26189790.066 5 137628300.93905
  26189803.431 5 102774427.41105  26189799.873 5 105455480.99705
  28059310.869 5 147452715.97105
  28059317.444 6 110110846.56406  28059316.595 7 112983289.97607
  23963523.486 8 125929226.08508
  23963532.136 8  94038142.95508  23963529.665 8  96491299.42008
  21777156.012 5 116452368.03505  90574183.78406                  21777166.499 6

  21676952.051 7 113913284.84107  88763671.15206  21676956.190 6

  20643678.883 7 110158654.39207

  20781155.105 8 111087268.55308  86401251.95208                  20781165.929 8

  25505084.020 7 134030315.98907
  25505087.139 7 100087728.63307  25505085.222 8 102698683.36408
  22976790.127 7 122694882.45807  95429522.56508                  22976797.854 8

  22623390.230 4                                                  22623396.913 5

  25180545.845 7 132324834.15007
  25180556.223 7  98814146.44407  25180553.644 7 101391878.64407
 24  1 21 14 45  6.0000000  0 24G20G13E05G11G12E15G05G17R11G22G06R10
                                E03E27E08E30R20G19R06R05E02R09R21E34
  20155845.531 7 105919829.66807  82535026.09607  20155847.706 7

  24366516.206 6 128046911.01906  99776833.25703  24366513.518 3

  24787449.587 6 130258893.98006
  24787462.231 7  97271281.03607  24787459.432 7  99808775.88107
  21719627.434 7 114137565.22707  88938459.97305  21719632.445 5  21719633.120 7

  21508350.963 7 113027196.45407  88073173.47809  21508356.305 9  21508356.970 7

  25154631.813 6 132188556.28306
  25154644.193 7  98712391.07107  25154641.392 7 101287462.64107
  21523683.704 7 113107732.07707  88135934.95008  21523688.232 8  21523689.217 7

  23407998.882 6 123009975.56006  95852006.95707  23408005.714 7  23408005.754 7

  22018403.983 7 117659671.38707  91513132.85607                  22018417.301 7

  23731633.033 6 124710729.08706  97177278.58604  23731631.750 4

  22646981.811 6 119010853.39606  92735842.56807  22646988.980 7  22646990.041 7

  21289789.696 7 113486558.85207

  25811574.435 7 135640761.63807
  25811582.570 7 101290398.96507  25811579.854 7 103932688.83207
  26189477.991 5 137626660.83905
  26189491.350 5 102773202.65605  26189487.658 5 105454224.31205
  28058901.750 5 147450565.46005
  28058908.252 6 110109240.69206  28058907.440 7 112981642.20507
  23963676.808 8 125930031.80408
  23963685.446 8  94038744.63208  23963682.970 8  96491916.78708
  21777193.088 5 116452570.75805  90574341.47206                  21777204.561 6

  21677196.896 7 113914571.43707  88764673.69206  21677201.060 6

  20643098.078 7 110155554.34907

  20781367.048 8 111088401.24408  86402132.93508                  20781377.891 8

  25505613.185 6 134033096.72506
  25505616.340 7 100089805.24807  25505614.402 8 102700814.14108
  22977499.594 7 122698670.55207  95432468.86207                  22977507.227 7

  22623197.007 4                                                  22623202.645 5

  25180734.233 7 132325824.11107
  25180744.592 7  98814885.70207  25180742.005 8 101392637.19008
 24  1 21 14 45  7.0000000  0 24G20G13E05G11G12E15G05G17R11G22G06R10
                                E03E27E08E30R20G19R06R05E02R09R21E34
  20155912.032 7 105920178.98007  82535298.22107  20155914.163 7

  24366043.105 6 128044425.47806  99774896.47103  24366040.456 3

  24787357.313 6 130258409.16406
  24787369.949 7  97270919.00607  24787367.159 7  99808404.40607
  21719775.066 7 114138341.75707  88939065.06705  21719780.214 5  21719780.830 7

  21508142.515 7 113026100.85107  88072319.76809  21508147.829 9  21508148.495 7

  25154637.022 6 132188583.71106
  25154649.358 7  98712411.55407  25154646.560 7 101287483.66507
  21523243.266 7 113105417.77907  88134131.60308  21523247.848 8  21523248.750 7

  23408335.739 6 123011745.53006  95853386.16206  23408342.539 6  23408342.476 7

  22018297.267 7 117659101.23707  91512689.40707                  22018310.684 7

  23732289.506 6 124714177.70006  97179965.82004  23732288.001 4

  22647283.620 6 119012440.33206  92737079.14207  22647291.011 7  22647291.999 7

  21290279.966 7 113489173.34307

  25811191.901 7 135638751.04807
  25811200.000 7 101288897.53007  25811197.252 7 103931148.22707
  26189165.930 5 137625021.05005
  26189179.342 5 102771978.14705  26189175.445 5 105452967.83605
  28058492.322 5 147448414.71605
  28058498.893 5 110107634.64705  28058498.100 6 112979994.24106
  23963830.190 8 125930837.92808
  23963838.886 8  94039346.60008  23963836.345 8  96492534.46508
  21777229.783 5 116452773.40005  90574499.06406                  21777242.284 6

  21677441.784 7 113915858.38707  88765676.51006  21677446.002 6

  20642517.328 7 110152454.76607

  20781579.152 8 111089534.73408  86403014.53908                  20781589.917 8

  25506142.297 6 134035877.54106
  25506145.579 6 100091881.91506  25506143.570 7 102702945.00207
  22978208.904 7 122702458.50107  95435415.06007                  22978216.516 7

  22623004.204 4                  94158032.90305                  22623008.214 5

  25180922.624 7 132326813.95507
  25180932.959 7  98815624.86707  25180930.357 8 101393395.63608
 24  1 21 14 45  8.0000000  0 24G20G13E05G11G12E15G05G17R11G22G06R10
                                E03E27E08E30R20G19R06R05E02R09R21E34
  20155978.784 7 105920529.04207  82535570.92907  20155980.763 7

  24365570.150 6 128041939.88306  99772959.65703  24365567.524 3

  24787265.144 6 130257924.87206
  24787277.836 7  97270557.38607  24787274.990 7  99808033.34507
  21719922.790 7 114139118.53607  88939670.35305  21719928.028 5  21719928.501 7

  21507934.247 7 113025006.05307  88071466.68309  21507939.505 9  21507940.131 7

  25154642.311 6 132188611.34806
  25154654.593 7  98712432.20007  25154651.869 7 101287504.84207
  21522803.080 8 113103104.14208  88132328.77108  21522807.599 8  21522808.409 7

  23408672.560 6 123013516.03506  95854765.78106  23408679.467 6  23408679.278 7

  22018190.420 7 117658532.05207  91512246.70507                  22018204.087 7

  23732945.713 6 124717626.61306  97182653.28304  23732944.305 4

  22647585.596 6 119014027.37906  92738315.80707  22647593.065 7  22647594.000 7

  21290770.532 7 113491788.47407

  25810809.293 7 135636740.69507
  25810817.439 7 101287396.29207  25810814.707 7 103929607.83007
  26188854.005 5 137623381.83105
  26188867.353 5 102770754.03505  26188863.660 5 105451711.79805
  28058083.143 5 147446263.93805
  28058089.551 5 110106028.54105  28058088.819 6 112978346.25506
  23963983.716 8 125931644.67108
  23963992.412 8  94039949.03708  23963989.856 8  96493152.61508
  21777266.753 5 116452976.10005  90574656.72106                  21777279.928 6

  21677686.679 7 113917145.91007  88766679.77106  21677691.043 6

  20641936.655 7 110149355.87207

  20781791.464 8 111090669.26008  86403896.94408                  20781802.150 8

  25506671.409 7 134038658.79407
  25506674.722 7 100093958.81707  25506672.743 8 102705076.06308
  22978918.437 7 122706246.55207  95438361.31607                  22978925.834 7

                                  94157221.11805                  22622813.142 5

  25181111.030 7 132327803.89107
  25181121.377 7  98816364.11007  25181118.745 8 101394154.16308
 24  1 21 14 45  9.0000000  0 24G20G13E05G11G12E15G05G17R11G22G06R10
                                E03E27E08E30R20G19R06R05E02R09R21E34
  20156045.559 7 105920879.81207  82535844.22507  20156047.511 7

  24365097.038 6 128039454.16606  99771022.73403  24365094.574 3

  24787173.049 6 130257441.04106
  24787185.747 7  97270196.09107  24787182.908 7  99807662.61707
  21720070.587 7 114139895.44207  88940275.73905  21720075.874 5  21720076.425 7

  21507726.097 7 113023911.99807  88070614.17509  21507731.324 9  21507731.888 7

  25154647.685 6 132188639.08506
  25154659.894 7  98712452.92407  25154657.123 7 101287526.10107
  21522362.959 7 113100791.07607  88130526.38208  21522367.457 8  21522368.102 7

  23409009.638 6 123015286.95106  95856145.72206  23409016.471 6  23409016.237 6

  22018084.005 7 117657963.73307  91511804.67807                  22018097.484 7

  23733602.147 6 124721075.73606  97185340.89304  23733600.668 4

  22647887.527 6 119015614.44606  92739552.48607  22647895.119 7  22647896.038 7

  21291261.320 7 113494404.16707

  25810426.796 7 135634730.53107
  25810434.930 7 101285895.17507  25810432.196 7 103928067.55507
  26188542.146 5 137621743.01705
  26188555.588 5 102769530.27705  26188551.759 5 105450456.11605
  28057674.111 5 147444113.05805
  28057680.224 5 110104422.36605  28057679.536 6 112976698.17606
  23964137.322 8 125932451.96108
  23964146.015 8  94040551.87408  23964143.490 8  96493771.18408
  21777304.781 5 116453178.78805  90574814.39006                  21777317.879 6

  21677931.813 7 113918433.90807  88767683.40406  21677936.173 6

  20641356.007 7 110146257.55707

  20782003.957 8 111091804.74308  86404780.10108                  20782014.534 8

  25507200.635 7 134041440.10507
  25507203.937 8 100096035.77608  25507201.945 8 102707207.20208
  22979627.898 7 122710034.64307  95441307.60407                  22979635.300 7

                                  94156409.30905                  22622618.599 5

  25181299.361 7 132328793.82607
  25181309.768 7  98817103.35207  25181307.119 8 101394912.68808
 24  1 21 14 45 10.0000000  0 24G20G13E05G11G12E15G05G17R11G22G06R10
                                E03E27E08E30R20G19R06R05E02R09R21E34
  20156112.550 7 105921231.52807  82536118.25807  20156114.438 7

  24364624.037 6 128036968.58506  99769085.93303  24364621.606 3

  24787081.102 6 130256957.94806
  24787093.804 7  97269835.33607  24787090.971 7  99807292.45807
  21720218.575 7 114140672.78407  88940881.46505  21720223.804 5  21720224.293 7

  21507518.183 7 113022818.95907  88069762.46209  21507523.340 9  21507523.970 7

  25154653.107 6 132188667.22306
  25154665.255 7  98712473.94407  25154662.479 7 101287547.67907
  21521923.034 7 113098478.89307  88128724.68008  21521927.481 8  21521928.094 7

  23409346.742 6 123017058.58806  95857526.22406  23409353.617 6  23409353.466 6

  22017977.831 7 117657396.59107  91511363.56807                  22017991.479 7

  23734258.351 6 124724525.33306  97188028.88004  23734257.147 4

  22648189.449 6 119017201.83406  92740789.41507  22648197.226 7  22648198.070 7

  21291752.128 7 113497020.70207

  25810044.347 6 135632720.82506
  25810052.525 7 101284394.41707  25810049.783 7 103926527.64607
  26188230.565 5 137620105.01805
  26188243.998 5 102768307.08405  26188239.890 5 105449201.01005
  28057264.883 5 147441962.34905
  28057270.889 5 110102816.35305  28057270.289 6 112975050.24306
  23964291.095 8 125933260.08008
  23964299.809 8  94041155.34308  23964297.266 8  96494390.39108
  21777342.689 5 116453381.79805  90574972.28106                  21777355.680 6

  21678177.030 7 113919722.70207  88768687.65706  21678181.459 6

  20640775.358 7 110143160.14707

  20782216.569 8 111092941.48208  86405664.23508                  20782227.108 8

  25507730.101 6 134044221.81806
  25507733.189 6 100098112.81706  25507731.099 6 102709338.38806
  22980337.477 7 122713823.01307  95444254.12007                  22980344.806 7

                                                                  22622423.430 5

  25181487.822 7 132329784.06407
  25181498.164 7  98817842.82107  25181495.547 8 101395671.44808
 24  1 21 14 45 11.0000000  0 24G20G13E05G11G12E15G05G17R11G22G06R10
                                E03E27E08E30R20G19R06R05E02R09R21E34
  20156179.619 7 105921583.44607  82536392.46907  20156181.418 7

  24364150.907 6 128034482.55306  99767148.77203  24364148.463 3

  24786989.233 6 130256474.96806
  24787001.907 7  97269474.68007  24786999.016 7  99806922.38807
  21720366.471 7 114141449.93707  88941487.04605  21720371.685 5  21720372.178 7

  21507310.337 7 113021726.31907  88068911.05709  21507315.432 9  21507316.040 7

  25154658.494 6 132188695.16006
  25154670.557 7  98712494.80607  25154667.762 7 101287569.07907
  21521483.147 7 113096166.93007  88126923.15008  21521487.545 8  21521488.087 7

  23409683.927 6 123018830.31006  95858906.79006  23409690.782 6  23409690.546 6

  22017871.769 7 117656829.97807  91510922.87107                  22017885.607 7

  23734914.690 6 124727974.78106  97190716.75204  23734913.590 4

  22648491.514 6 119018788.91006  92742026.09807  22648499.280 7  22648500.134 7

  21292243.146 7 113499637.42507

  25809661.875 6 135630710.97406
  25809670.076 7 101282893.54007  25809667.327 7 103924987.61907
  26187918.951 5 137618467.09605
  26187932.337 5 102767083.96105  26187928.165 5 105447946.00005
  28056855.791 5 147439811.20605
  28056861.541 5 110101209.95905  28056860.951 6 112973401.96606
  23964444.917 8 125934068.40408
  23964453.613 8  94041758.95008  23964451.069 8  96495009.75008
  21777379.800 5 116453584.49605  90575129.94406                  21777393.910 6

  21678422.376 7 113921011.63307  88769692.01806  21678426.763 6

  20640195.083 7 110140062.98107

  20782429.346 8 111094078.82008  86406548.83408                  20782439.701 8

  25508259.524 6 134047003.46806
  25508262.448 6 100100190.14006  25508260.496 7 102711469.94007
  22981046.822 7 122717611.04407  95447200.37107                  22981054.258 7

  22622233.591 4                                                  22622227.397 5

  25181676.272 7 132330773.97807
  25181686.533 7  98818582.05007  25181683.930 8 101396429.95508
 24  1 21 14 45 12.0000000  0 24G20G13E05G11G12E15G05G17R11G22G06R10
                                E03E27E08E30R20G19R06R05E02R09R21E34
  20156246.699 7 105921935.85507  82536667.05907  20156248.497 7

  24363677.659 6 128031996.18006  99765211.34103  24363675.357 3

  24786897.412 6 130255992.21206
  24786910.122 7  97269114.19707  24786907.106 7  99806552.50507
  21720514.329 7 114142227.01007  88942092.56005  21720519.557 5  21720520.001 7

  21507102.546 7 113020634.18007  88068060.04508  21507107.618 8  21507108.240 7

  25154663.706 6 132188722.96306
  25154675.843 7  98712515.57907  25154673.074 7 101287590.39007
  21521043.260 8 113093855.32908  88125121.90308  21521047.676 8  21521048.315 7

  23410021.158 6 123020602.25206  95860287.53106  23410027.983 6  23410027.821 6

  22017765.667 7 117656264.03007  91510482.67407                  22017779.602 7

  23735571.045 6 124731424.21206  97193404.61804  23735570.029 4

  22648793.412 6 119020375.76506  92743262.61007  22648801.289 7  22648802.043 7

  21292734.022 7 113502254.44707

  25809279.475 6 135628701.06306
  25809287.615 7 101281392.63607  25809284.869 7 103923447.56507
  26187607.336 5 137616829.43905
  26187620.735 5 102765861.02005  26187616.503 5 105446691.14905
  28056446.545 5 147437659.68005
  28056452.226 5 110099603.32705  28056451.405 6 112971753.41106
  23964598.798 8 125934877.04808
  23964607.473 8  94042362.80508  23964604.951 8  96495629.35208
  21777417.625 5 116453786.96205  90575287.41206                  21777431.697 6

  21678667.771 7 113922300.82607  88770696.58106  21678672.121 6

  20639614.948 7 110136966.18607

  20782642.261 8 111095216.84208  86407433.96708                  20782652.503 8

  25508788.975 6 134049785.26406
  25508791.873 6 100102267.46706  25508789.870 7 102713601.47807
  22981756.385 7 122721398.88107  95450146.46207                  22981763.663 7

                                                                  22622031.544 5

  25181864.581 7 132331763.67607
  25181874.895 7  98819321.10307  25181872.254 8 101397188.29408
 24  1 21 14 45 13.0000000  0 24G20G13E05G11G12E15G05G17R11G22G06R10
                                E03E27E08E30R20G19R06R05E02R09R21E34
  20156313.858 7 105922288.61507  82536941.93807  20156315.639 7

  24363204.467 6 128029509.39206  99763273.59003  24363202.201 3

  24786805.490 6 130255509.65906
  24786818.276 7  97268753.85307  24786815.263 7  99806182.76307
  21720662.326 7 114143003.96807  88942697.98505  21720667.420 5  21720667.814 7

  21506894.828 7 113019542.51507  88067209.40008  21506899.898 8  21506900.533 7

  25154668.980 6 132188750.63506
  25154681.118 7  98712536.24607  25154678.337 7 101287611.59907
  21520603.424 8 113091544.06408  88123320.91608  21520607.878 8  21520608.530 7

  23410358.347 6 123022374.36406  95861668.40506  23410365.206 6  23410364.984 6

  22017659.971 7 117655698.66507  91510042.95407                  22017673.759 7

  23736227.587 6 124734873.57406  97196092.43604  23736226.454 4

  22649095.464 6 119021962.40306  92744498.95607  22649103.253 7  22649103.801 7

  21293224.797 7 113504871.73407

  25808897.035 6 135626691.06306
  25808905.139 7 101279891.66507  25808902.395 7 103921907.42807
  26187295.795 5 137615191.96605
  26187309.124 5 102764638.25305  26187304.799 5 105445436.49705
  28056037.158 5 147435507.81005
  28056042.896 5 110097996.40905  28056041.941 6 112970104.59106
  23964752.770 8 125935685.97708
  23964761.401 8  94042966.87208  23964758.886 8  96496249.18208
  21777456.409 5 116453989.19105  90575444.69206                  21777469.411 6

  21678913.085 7 113923590.24807  88771701.32206  21678917.528 6

  20639034.734 7 110133869.70207

  20782855.220 8 111096355.52708  86408319.61508                  20782865.538 8

  25509318.301 6 134052567.08806
  25509321.314 7 100104344.76507  25509319.274 8 102715732.96308
  22982465.638 7 122725186.46007  95453092.36507                  22982472.771 7

                                                                  22621836.540 5

  25182052.920 7 132332753.12007
  25182063.144 7  98820059.98007  25182060.560 8 101397946.45308
 24  1 21 14 45 14.0000000  0 24G20G13E05G11G12E15G05G17R11G22G06R10
                                E03E27E08E30R20G19R06R05E02R09R21E34
  20156381.102 8 105922641.84608  82537217.18207  20156382.861 7

  24362731.017 6 128027022.37706  99761335.66603  24362728.960 3

  24786713.671 6 130255027.43306
  24786726.452 7  97268393.76607  24786723.491 7  99805813.27307
  21720810.303 7 114143780.95007  88943303.43305  21720815.305 5  21720815.719 7

  21506687.168 7 113018451.46907  88066359.23808  21506692.294 8  21506692.888 7

  25154674.157 6 132188778.30106
  25154686.401 7  98712556.92107  25154683.561 7 101287632.80207
  21520163.762 8 113089233.24208  88121520.27708  21520168.161 8  21520168.835 7

  23410695.419 6 123024146.79506  95863049.52806  23410702.491 6  23410702.237 6

  22017554.377 7 117655134.06107  91509603.81307                  22017568.059 7

  23736884.014 6 124738323.03206  97198780.32104  23736882.892 4

  22649397.156 6 119023548.93806  92745735.21807  22649405.195 7  22649405.600 7

  21293716.027 7 113507489.45007

  25808514.542 6 135624681.14006
  25808522.625 7 101278390.72907  25808519.920 7 103920367.34907
  26186984.299 5 137613554.86005
  26186997.572 5 102763415.72605  26186993.154 5 105444182.08005
  28055627.728 5 147433355.68505
  28055633.302 5 110096389.32805  28055632.371 6 112968455.56406
  23964906.778 8 125936495.32208
  23964915.384 8  94043571.25408  23964912.900 8  96496869.32808
  21777494.911 5 116454191.33505  90575601.89906                  21777507.147 6

  21679158.405 7 113924880.04207  88772706.35306  21679162.998 6

  20638454.617 7 110130773.69807

  20783068.341 8 111097495.02408  86409205.89108                  20783078.687 8

  25509847.727 7 134055349.06207
  25509850.770 7 100106422.26007  25509848.713 8 102717864.65808
  22983174.966 7 122728973.94107  95456038.19107                  22983182.082 7

  22621652.200 3                                                  22621641.954 5

  25182241.293 7 132333742.46407
  25182251.418 7  98820798.77707  25182248.843 8 101398704.51508
 24  1 21 14 45 15.0000000  0 24G20G13E05G11G12E15G05G17R11G22G06R10
                                E03E27E08E30R20G19R06R05E02R09R21E34
  20156448.447 8 105922995.60108  82537492.82407  20156450.181 7

  24362257.567 6 128024535.20806  99759397.62103  24362255.715 3

  24786622.000 6 130254545.64106
  24786634.807 7  97268033.98707  24786631.787 7  99805444.11807
  21720958.315 7 114144558.05007  88943908.97305  21720963.213 5  21720963.627 7

  21506479.668 7 113017361.13007  88065509.62808  21506484.819 8  21506485.420 7

  25154679.417 6 132188806.06006
  25154691.637 7  98712577.64807  25154688.884 7 101287654.07007
  21519724.157 7 113086922.97107  88119720.06608  21519728.543 8  21519729.202 7

  23411032.982 6 123025919.62406  95864430.95906  23411039.844 6  23411039.577 6

  22017448.891 7 117654570.30307  91509165.31407                  22017462.625 7

  23737540.360 6 124741772.66106  97201468.33504  23737539.358 4

  22649698.946 6 119025135.48306  92746971.48807  22649707.136 7  22649707.595 7

  21294207.472 7 113510107.66507

  25808132.071 6 135622671.35206
  25808140.161 7 101276889.92707  25808137.457 7 103918827.39207
  26186673.004 5 137611918.19705
  26186686.166 5 102762193.55905  26186681.716 5 105442928.02705
  28055218.315 5 147431203.46605
  28055223.626 5 110094782.12505  28055222.869 6 112966806.45406
  23965060.946 8 125937305.19108
  23965069.487 8  94044176.01808  23965067.017 8  96497489.87608
  21777533.279 5 116454393.44705  90575759.10706                  21777545.147 6

  21679403.930 7 113926170.30507  88773711.75106  21679408.553 6

  20637874.671 7 110127678.30107

  20783281.549 8 111098635.45708  86410092.89308                  20783291.966 8

  25510377.133 6 134058131.21306
  25510380.173 7 100108499.84407  25510378.191 8 102719996.43908
  22983884.073 7 122732761.42307  95458984.00807                  22983891.362 7

  22621455.310 3                                                  22621448.026 5

  25182429.567 7 132334731.79007
  25182439.662 7  98821537.56207  25182437.105 8 101399462.57408
 24  1 21 14 45 16.0000000  0 24G20G13E05G11G12E15G05G17R11G22G06R10
                                E03E27E08E30R20G19R06R05E02R09R21E34
  20156515.861 7 105923349.78707  82537768.75207  20156517.582 7

  24361784.220 6 128022047.80706  99757459.39303  24361782.416 3

  24786530.432 6 130254064.17206
  24786543.098 7  97267674.47307  24786540.168 7  99805075.21207
  21721106.183 7 114145335.18907  88944514.54705  21721111.135 5  21721111.513 7

  21506272.330 7 113016271.41607  88064660.50508  21506277.470 8  21506277.991 7

  25154684.627 6 132188833.81806
  25154696.942 7  98712598.38107  25154694.116 7 101287675.35107
  21519284.654 7 113084613.16907  88117920.22008  21519289.018 8  21519289.609 7

  23411370.313 6 123027692.76706  95865812.63206  23411377.255 6  23411377.088 6

  22017343.421 7 117654007.28807  91508727.42207                  22017357.287 7

  23738196.814 6 124745222.37906  97204156.42304  23738195.837 4

  22650000.779 6 119026721.94206  92748207.69307  22650009.056 7  22650009.577 7

  21294698.721 7 113512726.30907

  25807749.609 6 135620661.64006
  25807757.696 7 101275389.14907  25807755.006 7 103917287.46207
  26186361.770 5 137610281.86205
  26186374.814 5 102760971.62105  26186370.309 5 105441674.19205
  28054808.808 5 147429050.99705
  28054813.975 5 110093174.79205  28054813.270 6 112965157.16906
  23965215.181 8 125938115.48208
  23965223.675 8  94044781.11308  23965221.205 8  96498110.74608
  21777572.148 5 116454595.47205  90575916.23806                  21777583.154 6

  21679649.417 7 113927460.94207  88774717.44206  21679654.183 6

  20637294.626 7 110124583.37107

  20783494.842 8 111099776.73308  86410980.55808                  20783505.466 8

  25510906.529 7 134060913.44007
  25510909.536 7 100110577.49107  25510907.621 7 102722128.29407
  22984593.266 7 122736548.77007  95461929.72807                  22984600.467 7

                                                                  22621252.494 5

  25182617.893 7 132335721.01507
  25182627.975 7  98822276.27307  25182625.379 8 101400220.55508
 24  1 21 14 45 17.0000000  0 24G20G13E05G11G12E15G05G17R11G22G06R10
                                E03E27E08E30R20G19R06R05E02R09R21E34
  20156583.440 7 105923704.93007  82538045.42907  20156585.152 7

  24361310.788 6 128019560.53406  99755521.26403  24361309.153 3

  24786438.949 6 130253583.45106
  24786451.593 7  97267315.49907  24786448.684 7  99804706.87507
  21721253.996 7 114146112.75607  88945120.44605  21721259.123 5  21721259.340 7

  21506065.241 7 113015182.71207  88063812.16808  21506070.318 8  21506070.710 7

  25154689.936 6 132188861.95706
  25154702.288 7  98712619.40907  25154699.459 7 101287696.93507
  21518845.333 7 113082304.22307  88116121.04008  21518849.659 8  21518850.292 7

  23411707.877 6 123029466.62706  95867194.86906  23411714.800 6  23411714.529 6

  22017238.185 7 117653445.45707  91508290.42907                  22017252.083 7

  23738853.275 6 124748672.57706  97206844.88504  23738852.437 4

  22650302.832 6 119028308.68206  92749444.11907  22650311.029 7  22650311.533 7

  21295190.237 7 113515345.76007

  25807367.300 6 135618652.36706
  25807375.331 7 101273888.72507  25807372.684 7 103915747.89707
  26186050.643 5 137608646.27705
  26186063.541 5 102759750.27105  26186059.011 5 105440420.97405
  28054399.123 5 147426898.68805
  28054404.551 5 110091567.53505  28054403.765 6 112963507.99906
  23965369.564 8 125938926.60308
  23965378.017 8  94045386.80908  23965375.543 8  96498732.25008
  21777609.899 5 116454797.79605  90576073.59806                  21777621.245 6

  21679895.220 7 113928752.34207  88775723.72806  21679899.939 6

  20636714.540 7 110121489.33807

  20783708.502 8 111100919.27108  86411869.19608                  20783719.218 8

  25511436.061 6 134063696.25006
  25511439.125 6 100112655.63206  25511437.202 7 102724260.62507
  22985302.503 7 122740336.39407  95464875.66407                  22985309.753 7

                                  94149911.18104                  22621056.678 4

  25182806.207 7 132336710.53807
  25182816.239 7  98823015.19707  25182813.670 8 101400978.76208
 24  1 21 14 45 18.0000000  0 24G20G13E05G11G12E15G05G17R11G22G06R10
                                E03E27E08E30R20G19R06R05E02R09R21E34
  20156651.168 7 105924060.64507  82538322.57107  20156652.839 7

  24360837.469 6 128017072.99206  99753582.93203  24360835.836 3

  24786347.539 6 130253103.02606
  24786360.132 7  97266956.74707  24786357.268 7  99804338.75807
  21721401.822 7 114146890.31607  88945726.34005  21721407.129 5  21721407.453 7

  21505858.169 7 113014094.59007  88062964.28509  21505863.273 9  21505863.653 7

  25154695.209 6 132188890.09906
  25154707.646 7  98712640.41007  25154704.805 7 101287718.48507
  21518405.965 7 113079995.71207  88114322.20308  21518410.384 8  21518411.041 7

  23412045.461 6 123031240.76906  95868577.32406  23412052.385 6  23412052.049 6

  22017133.412 7 117652884.32507  91507854.00507                  22017147.017 7

  23739509.848 6 124752122.82606  97209533.38804  23739509.045 4

  22650604.806 6 119029895.31606  92750680.45907  22650612.966 7  22650613.541 7

  21295681.953 7 113517965.58707

  25806984.922 6 135616643.13606
  25806992.988 7 101272388.31607  25806990.347 7 103914208.34807
  26185739.513 5 137607011.01705
  26185752.321 5 102758529.10905  26185747.990 5 105439168.00005
  28053989.444 5 147424746.07905
  28053994.861 5 110089960.14105  28053994.175 6 112961858.62506
  23965524.001 8 125939738.11608
  23965532.474 8  94045992.80508  23965529.975 8  96499354.05908
  21777647.943 5 116454999.94905  90576230.86806                  21777658.914 6

  21680141.070 7 113930044.09207  88776730.28506  21680145.771 6

  20636134.630 7 110118395.72607

  20783922.434 8 111102062.59908  86412758.44908                  20783933.074 8

  25511965.577 7 134066479.13807
  25511968.637 7 100114733.68107  25511966.773 8 102726392.88308
  22986011.979 7 122744123.88707  95467821.49607                  22986019.033 7

                                  94149098.54905                  22620860.877 5

  25182994.449 7 132337699.90807
  25183004.487 7  98823754.02907  25183001.958 8 101401736.85908
 24  1 21 14 45 19.0000000  0 24G20G13E05G11G12E15G05G17R11G22G06R10
                                E03E27E08E30R20G19R06R05E02R09R21E34
  20156718.935 8 105924416.79708  82538600.05807  20156720.616 7

  24360364.063 6 128014585.07006  99751644.29603  24360362.461 3

  24786256.126 6 130252622.79206
  24786268.751 7  97266598.13707  24786265.848 7  99803970.79607
  21721549.758 7 114147667.76007  88946332.14605  21721555.113 5  21721555.389 7

  21505651.168 7 113013006.94207  88062116.77109  21505656.313 9  21505656.831 7

  25154700.538 6 132188918.06306
  25154712.973 7  98712661.31307  25154710.101 7 101287739.92607
  21517966.728 7 113077687.50607  88112523.60208  21517971.164 8  21517971.844 7

  23412382.978 6 123033015.07106  95869959.90106  23412390.001 6  23412389.716 6

  22017028.565 7 117652323.78807  91507418.01307                  22017042.102 7

  23740166.480 6 124755573.01506  97212221.84604  23740165.631 4

  22650906.724 6 119031481.72306  92751916.62007  22650914.859 7  22650915.423 7

  21296173.490 7 113520585.69207

  25806602.602 6 135614633.80506
  25806610.590 7 101270887.83307  25806607.961 7 103912668.71607
  26185428.602 5 137605375.94005
  26185441.232 5 102757308.12305  26185437.091 5 105437915.15405
  28053579.873 5 147422593.12305
  28053585.028 5 110088352.40305  28053584.474 6 112960208.97506
  23965678.516 8 125940549.91008
  23965686.948 8  94046599.01308  23965684.424 8  96499976.07708
  21777684.416 5 116455201.91905  90576387.94006                  21777696.590 6

  21680386.932 7 113931336.05807  88777737.01006  21680391.648 6

  20635554.694 7 110115302.42707

  20784136.599 8 111103206.59508  86413648.23008                  20784147.092 8

  25512495.206 6 134069262.02206
  25512498.214 7 100116811.88007  25512496.358 8 102728525.30208
  22986720.876 7 122747911.11907  95470767.12907                  22986728.244 7

                                  94148285.69305                  22620665.344 5

  25183182.637 7 132338689.04007
  25183192.711 7  98824492.65907  25183190.178 8 101402494.76008
 24  1 21 14 45 20.0000000  0 24G20G13E05G11G12E15G05G17R11G22G06R10
                                E03E27E08E30R20G19R06R05E02R09R21E34
  20156786.734 7 105924773.27207  82538877.80807  20156788.468 7

  24359890.361 6 128012096.89206  99749705.45603  24359888.921 3

  24786164.842 6 130252142.88406
  24786177.421 7  97266239.77307  24786174.522 7  99803603.07907
  21721697.600 7 114148445.21307  88946937.96205  21721703.101 5  21721703.373 7

  21505444.313 7 113011919.88807  88061269.72108  21505449.469 8  21505449.894 7

  25154705.779 6 132188946.01306
  25154718.291 7  98712682.19407  25154715.371 7 101287761.33907
  21517527.557 7 113075379.73807  88110725.34408  21517532.028 8  21517532.579 7

  23412720.497 6 123034789.67406  95871342.71506  23412727.676 6  23412727.348 6

  22016923.618 7 117651763.98907  91506982.60907                  22016937.392 7

  23740823.036 6 124759023.28106  97214910.37404  23740822.186 4

  22651208.625 6 119033068.00306  92753152.68607  22651216.725 7  22651217.369 7

  21296665.079 7 113523206.19607

  25806220.351 6 135612624.50506
  25806228.274 7 101269387.38707  25806225.604 7 103911129.13207
  26185117.433 5 137603741.21805
  26185130.141 5 102756087.37805  26185126.012 5 105436662.54305
  28053170.212 5 147420439.94905
  28053175.264 5 110086744.50205  28053174.686 6 112958559.13106
  23965833.071 8 125941362.10708
  23965841.512 8  94047205.52208  23965838.980 8  96500598.40808
  21777721.820 5 116455403.70305  90576544.89906                  21777734.203 6

  21680632.837 7 113932628.36907  88778744.00506  21680637.587 6

  20634974.873 7 110112209.58607

  20784351.081 8 111104351.39508  86414538.63408                  20784361.295 8

  25513024.722 6 134072044.97506
  25513027.748 7 100118890.04007  25513025.915 8 102730657.67508
  22987430.269 7 122751698.21307  95473712.66107                  22987437.396 7

                                  94147472.68704                  22620471.336 4

  25183370.910 7 132339678.03807
  25183380.928 7  98825231.20507  25183378.365 8 101403252.56908
 24  1 21 14 45 21.0000000  0 24G20G13E05G11G12E15G05G17R11G22G06R10
                                E03E27E08E30R20G19R06R05E02R09R21E34
  20156854.688 7 105925130.19307  82539155.87607  20156856.410 7

  24359417.011 6 128009608.45306  99747766.41603  24359415.425 3

  24786073.501 6 130251663.29306
  24786086.103 7  97265881.64107  24786083.267 7  99803235.60707
  21721845.549 7 114149222.68407  88947543.78805  21721851.103 5  21721851.472 7

  21505237.537 7 113010833.44607  88060423.14609  21505242.737 9  21505243.162 7

  25154711.008 6 132188973.95506
  25154723.594 7  98712703.05407  25154720.711 7 101287782.75407
  21517088.572 7 113073072.42007  88108927.43608  21517092.968 8  21517093.581 7

  23413058.022 6 123036564.57906  95872725.76306  23413065.409 6  23413064.952 6

  22016818.996 7 117651204.91707  91506547.78207                  22016832.959 7

  23741479.599 6 124762473.61506  97217598.94504  23741478.781 4

  22651510.427 6 119034654.18706  92754388.67507  22651518.568 7  22651519.197 7

  21297156.731 7 113525827.11207

  25805837.960 6 135610615.27906
  25805845.936 7 101267886.98007  25805843.243 7 103909589.59307
  26184806.528 5 137602106.81105
  26184819.086 5 102754866.88805  26184814.771 5 105435410.22805
  28052760.471 5 147418286.51405
  28052765.255 5 110085136.42605  28052764.912 6 112956909.09406
  23965987.683 8 125942174.72908
  23965996.158 8  94047812.34708  23965993.592 8  96501221.06308
  21777759.839 5 116455605.42105  90576701.79306                  21777771.761 6

  21680878.932 7 113933921.05807  88779751.29406  21680883.589 6

  20634395.346 7 110109117.22507

  20784565.360 8 111105497.01108  86415429.66808                  20784575.582 8

  25513554.340 7 134074828.02307
  25513557.330 8 100120968.21608  25513555.466 8 102732790.06208
  22988139.552 7 122755485.22407  95476658.12607                  22988146.497 7

                                  94146659.60405                  22620276.234 5

  25183558.982 7 132340666.91707
  25183569.090 7  98825969.65407  25183566.529 8 101404010.28308
 24  1 21 14 45 22.0000000  0 24G20G13E05G11G12E15G05G17R11G22G06R10
                                E03E27E08E30R20G19R06R05E02R09R21E34
  20156922.649 7 105925487.26107  82539434.05507  20156924.365 7

  24358943.278 6 128007119.28906  99745826.81403  24358941.755 3

  24785982.298 6 130251183.55506
  24785994.826 7  97265523.40707  24785991.956 7  99802868.02407
  21721993.351 7 114149999.69707  88948149.25905  21721999.011 5  21721999.362 7

  21505030.774 7 113009747.13807  88059576.67608  21505036.036 8  21505036.410 7

  25154716.174 6 132189001.39606
  25154728.785 7  98712723.57307  25154725.919 7 101287803.79607
  21516649.465 7 113070765.09107  88107129.51908  21516653.904 8  21516654.471 7

  23413395.872 6 123038339.33106  95874108.69106  23413403.114 6  23413402.877 6

  22016714.251 7 117650646.12707  91506113.15407                  22016728.439 7

  23742135.952 6 124765923.56306  97220287.22104  23742135.251 4

  22651811.897 6 119036239.77706  92755624.20507  22651820.296 7  22651820.845 7

  21297648.171 7 113528447.97507

  25805455.517 7 135608605.61207
  25805463.540 7 101266386.25307  25805460.821 7 103908049.71107
  26184495.612 6 137600472.27606
  26184508.043 5 102753646.31805  26184503.652 5 105434157.80805
  28052350.601 5 147416132.33405
  28052355.243 5 110083527.79305  28052355.008 6 112955258.51106
  23966142.309 8 125942987.29008
  23966150.790 8  94048419.12408  23966148.220 8  96501843.66808
  21777797.769 5 116455806.53505  90576858.21506                  21777809.419 6

  21681124.827 7 113935213.62907  88780758.48606  21681129.564 6

  20633815.974 7 110106024.86407

  20784779.829 8 111106642.95108  86416320.95208                  20784790.030 8

  25514083.870 7 134077610.67107
  25514086.845 7 100123046.06007  25514084.978 7 102734922.13607
  22988848.822 7 122759271.62007  95479603.10207                  22988855.671 7

                                  94145845.98005                  22620081.202 5

  25183747.064 7 132341655.22607
  25183757.151 7  98826707.67207  25183754.625 8 101404767.55608
 24  1 21 14 45 23.0000000  0 24G20G13E05G11G12E15G05G17R11G22G06R10
                                E03E27E08E30R20G19R06R05E02R09R21E34
  20156990.802 7 105925844.91007  82539712.70507  20156992.423 7

  24358469.651 6 128004629.97706  99743887.09803  24358468.130 3

  24785891.094 6 130250704.24306
  24785903.581 7  97265165.48307  24785900.748 7  99802500.75407
  21722141.229 7 114150776.81407  88948754.81005  21722146.932 5  21722147.261 7

  21504824.184 7 113008661.50707  88058730.73408  21504829.456 8  21504829.850 7

  25154721.329 6 132189028.94106
  25154733.904 7  98712744.13507  25154731.174 7 101287824.90107
  21516210.486 8 113068458.27408  88105332.00208  21516214.943 8  21516215.478 7

  23413733.538 6 123040114.46506  95875491.91406  23413740.887 6  23413740.782 6

  22016609.821 7 117650088.14307  91505679.16507                  22016624.160 7

  23742792.497 6 124769373.65906  97222975.60304  23742791.806 4

  22652113.618 6 119037825.36306  92756859.73007  22652122.023 7  22652122.533 7

  21298139.650 7 113531069.35107

  25805073.117 6 135606596.09006
  25805081.154 7 101264885.60307  25805078.455 7 103906509.92107
  26184184.703 6 137598838.16106
  26184197.019 5 102752426.03305  26184192.847 5 105432905.70305
  28051940.605 5 147413978.03005
  28051945.294 5 110081919.07305  28051945.018 6 112953607.80806
  23966297.048 8 125943800.34708
  23966305.501 8  94049026.28008  23966302.940 8  96502466.66408
  21777835.084 5 116456007.59205  90577014.59806                  21777846.728 6

  21681370.771 7 113936506.64507  88781766.03106  21681375.628 6

  20633236.734 7 110102933.07107

  20784994.405 8 111107789.77908  86417212.93508                  20785004.668 8

  25514613.465 6 134080393.39806
  25514616.420 7 100125123.97907  25514614.601 7 102737054.25807
  22989557.802 7 122763057.97907  95482548.05707                  22989564.944 7

                                  94145032.27105                  22619885.841 5

  25183935.119 7 132342643.48007
  25183945.222 7  98827445.66207  25183942.702 8 101405524.80208
 24  1 21 14 45 24.0000000  0 24G20G13E05G11G12E15G05G17R11G22G06R10
                                E03E27E08E30R20G19R06R05E02R09R21E34
  20157059.028 7 105926203.10707  82539991.78407  20157060.598 7

  24357995.885 6 128002140.30806  99741947.09203  24357994.406 3

  24785800.018 6 130250225.15906
  24785812.393 7  97264807.73807  24785809.584 7  99802133.68407
  21722289.064 7 114151553.87407  88949360.31905  21722294.863 5  21722295.159 7

  21504617.705 7 113007576.42407  88057885.21908  21504622.983 8  21504623.540 7

  25154726.507 6 132189056.37306
  25154739.089 7  98712764.63507  25154736.335 7 101287845.92607
  21515771.518 8 113066151.83908  88103534.78108  21515776.049 8  21515776.535 7

  23414071.264 6 123041889.81906  95876875.31406  23414078.701 6  23414078.636 6

  22016505.320 7 117649530.83107  91505245.70507                  22016519.862 7

  23743449.015 6 124772823.76106  97225663.99404  23743448.348 4

  22652415.310 6 119039410.77506  92758095.11607  22652423.714 7  22652424.126 7

  21298631.338 7 113533691.06207

  25804690.701 6 135604586.51306
  25804698.735 7 101263384.95007  25804696.070 7 103904970.11707
  26183873.755 6 137597204.30906
  26183886.208 5 102751205.93305  26183881.733 5 105431653.78805
  28051530.698 5 147411823.40105
  28051535.266 5 110080310.10905  28051535.021 6 112951956.87106
  23966451.816 8 125944613.75008
  23966460.268 8  94049633.68908  23966457.721 8  96503089.91708
  21777872.862 5 116456208.46905  90577170.83306                  21777884.372 6

  21681616.712 7 113937799.96207  88782773.80906  21681621.733 6

  20632657.518 7 110099841.64807

  20785208.992 8 111108937.36408  86418105.51108                  20785219.344 8

  25515143.094 6 134083176.24406
  25515146.155 6 100127202.08206  25515144.229 7 102739186.57407
  22990266.539 7 122766844.13307  95485492.85007                  22990273.855 7

                                  94144218.38505                  22619690.107 5

  25184123.094 7 132343631.56107
  25184133.243 7  98828183.51207  25184130.736 8 101406281.89708
 24  1 21 14 45 25.0000000  0 24G20G13E05G11G12E15G05G17R11G22G06R10
                                E03E27E08E30R20G19R06R05E02R09R21E34
  20157127.399 7 105926562.07807  82540271.50407  20157128.933 7

  24357522.133 6 127999650.68006  99740007.12803  24357520.718 3

  24785709.021 6 130249746.70906
  24785721.346 7  97264450.46707  24785718.559 7  99801767.09507
  21722437.080 7 114152331.26207  88949966.08405  21722442.869 5  21722443.106 7

  21504411.373 7 113006492.24407  88057040.40608  21504416.676 8  21504417.173 7

  25154731.889 6 132189084.10206
  25154744.379 7  98712785.35107  25154741.683 7 101287867.18807
  21515332.738 7 113063846.16707  88101738.15708  21515337.293 8  21515337.763 7

  23414409.143 6 123043665.75106  95878259.16506  23414416.617 6  23414416.558 6

  22016401.147 7 117648974.56507  91504813.06007                  22016415.751 7

  23744105.664 6 124776274.23406  97228352.67904  23744104.970 4

  22652717.062 6 119040996.38406  92759330.65807  22652725.432 7  22652725.852 7

  21299123.377 7 113536313.51107

  25804308.331 6 135602577.29606
  25804316.414 7 101261884.53907  25804313.730 7 103903430.57307
  26183562.953 6 137595571.09506
  26183575.454 5 102749986.34505  26183570.932 5 105430402.36705
  28051120.380 5 147409668.84505
  28051125.229 5 110078701.16805  28051124.991 6 112950305.96906
  23966606.677 8 125945427.86708
  23966615.204 8  94050241.63308  23966612.649 8  96503713.72308
  21777911.012 5 116456409.54005  90577327.20407                  21777921.822 7

  21681862.852 7 113939093.93007  88783782.09506  21681867.968 6

  20632078.427 7 110096751.01607

  20785423.866 8 111110086.11008  86418998.97408                  20785434.210 8

  25515672.931 6 134085959.58906
  25515675.849 7 100129280.45107  25515673.968 7 102741319.19607
  22990975.358 7 122770630.48707  95488437.80807                  22990982.898 7

                                  94143404.55605                  22619492.580 5

  25184311.105 7 132344619.82007
  25184321.304 7  98828921.50407  25184318.809 8 101407039.13808
 24  1 21 14 45 26.0000000  0 24G20G13E05G11G12E15G05G17R11G22G06R10
                                E03E27E08E30R20G19R06R05E02R09R21E34
  20157195.906 7 105926921.73007  82540551.75707  20157197.398 7

  24357048.439 6 127997161.06806  99738067.18003  24357046.968 3

  24785618.132 6 130249268.84306
  24785630.414 7  97264093.62707  24785627.612 7  99801400.94607
  21722585.072 6 114153108.91806  88950572.05705  21722590.915 5  21722591.077 7

  21504205.200 7 113005408.92607  88056196.26808  21504210.539 8  21504211.009 7

  25154737.275 6 132189112.09206
  25154749.675 7  98712806.24607  25154746.958 7 101287888.63107
  21514894.039 7 113061541.19007  88099942.07308  21514898.672 8  21514899.137 7

  23414747.202 6 123045442.25406  95879643.45706  23414754.640 6  23414754.621 7

  22016297.160 7 117648419.30107  91504381.18407                  22016311.774 7

  23744762.614 6 124779725.04706  97231041.63104  23744761.623 4

  22653018.785 6 119042582.15406  92760566.32407  22653027.187 7  22653027.559 7

  21299615.304 7 113538936.64407

  25803926.075 7 135600568.38707
  25803934.118 7 101260384.39207  25803931.480 7 103901891.28307
  26183252.136 6 137593938.48206
  26183264.745 5 102748767.18505  26183260.228 5 105429151.38605
  28050710.390 5 147407514.28205
  28050715.349 5 110077092.27605  28050714.952 6 112948655.09006
  23966761.743 8 125946242.66208
  23966770.291 8  94050850.08008  23966767.697 8  96504338.04408
  21777948.475 5 116456610.73805  90577483.69007                  21777959.369 7

  21682109.143 7 113940388.52307  88784790.86806  21682114.300 6

  20631499.397 7 110093661.13007

  20785638.828 8 111111235.93008  86419893.28508                  20785649.340 8

  25516202.730 6 134088743.30606
  25516205.627 6 100131359.24706  25516203.794 7 102743452.23007
  22991684.521 7 122774416.97007  95491382.85607                  22991691.960 7

                                  94142590.86205                  22619297.451 5

  25184499.182 7 132345608.22907
  25184509.401 7  98829659.59507  25184506.901 8 101407796.49008
 24  1 21 14 45 27.0000000  0 24G20G13E05G11G12E15G05G17R11G22G06R10
                                E03E27E08E30R20G19R06R05E02R09R21E34
  20157264.391 7 105927281.79007  82540832.31607  20157265.935 7

  24356574.529 6 127994671.06006  99736126.92403  24356573.106 3

  24785527.167 6 130248791.18006
  24785539.487 7  97263736.93807  24785536.691 7  99801034.94407
  21722733.109 7 114153886.46407  88951177.94205  21722738.939 5  21722739.033 7

  21503999.057 7 113004326.08407  88055352.49708  21504004.491 8  21504004.961 7

  25154742.560 6 132189139.92106
  25154754.982 7  98712827.03407  25154752.267 7 101287909.96207
  21514455.455 8 113059236.54008  88098146.24308  21514460.108 8  21514460.559 7

  23415085.234 6 123047218.91706  95881027.87106  23415092.699 6  23415092.584 7

  22016193.077 7 117647864.65207  91503949.79307                  22016207.992 7

  23745419.312 6 124783175.80206  97233730.53304  23745418.259 4

  22653320.463 6 119044167.69006  92761801.80907  22653328.891 7  22653329.335 7

  21300107.610 7 113541560.05107

  25803543.791 6 135598559.41006
  25803551.808 7 101258884.16707  25803549.216 7 103900351.93407
  26182941.270 6 137592306.06006
  26182954.171 5 102747548.19005  26182949.558 5 105427900.59205
  28050300.306 5 147405359.34405
  28050305.264 5 110075483.08305  28050304.866 6 112947003.92206
  23966916.847 8 125947057.73608
  23966925.414 8  94051458.74008  23966922.802 8  96504962.57708
  21777985.749 5 116456811.66605  90577639.98107                  21777997.087 7

  21682355.595 7 113941683.34407  88785799.81606  21682360.664 6

  20630920.357 7 110090571.56407

  20785854.119 8 111112386.42108  86420788.10908                  20785864.550 8

  25516732.579 7 134091527.10407
  25516735.449 7 100133438.03107  25516733.607 7 102745585.20807
  22992393.808 7 122778203.17707  95494327.70007                  22992400.815 7

  22619150.027 3                  94141776.94005                  22619101.954 5

  25184687.107 7 132346596.37607
  25184697.444 7  98830397.51107  25184694.942 8 101408553.65208
 24  1 21 14 45 28.0000000  0 24G20G13E05G11G12E15G05G17R11G22G06R10
                                E03E27E08E30R20G19R06R05E02R09R21E34
  20157333.064 7 105927642.62407  82541113.47807  20157334.623 7

  24356100.662 6 127992181.11006  99734186.71403  24356099.279 3

  24785436.433 6 130248314.14906
